{
  "lastUpdated": "2026-03-24T10:40:00Z",
  "totalClubs": 25,
  "countries": {
    "UK": 15,
    "DE": 7,
    "HU": 3
  },
  "clubs": [
    {
      "id": "uk-london-rocket-padel-battersea",
      "name": "Rocket Padel Battersea",
      "latitude": 51.4828,
      "longitude": -0.1426,
      "address": "Battersea Power Station, London SW11",
      "city": "London",
      "country": "UK",
      "courtCount": 6,
      "phone": null,
      "website": "https://www.rocketpadel.com/club/Battersea-power-station",
      "sources": ["osm"],
      "lastVerified": "2026-03-24"
    },
    {
      "id": "uk-london-padel-pod",
      "name": "Padel Pod",
      "latitude": 51.5823,
      "longitude": -0.1301,
      "address": "View Crescent, London N8 8RE",
      "city": "London",
      "country": "UK",
      "courtCount": 2,
      "phone": "+44 7360 672 219",
      "website": "https://thepadelpod.co.uk/about/flagship-site/",
      "sources": ["osm"],
      "lastVerified": "2026-03-24"
    },
    {
      "id": "uk-london-instantpadel",
      "name": "Instantpadel",
      "latitude": 51.4961,
      "longitude": -0.0482,
      "address": "London",
      "city": "London",
      "country": "UK",
      "courtCount": 4,
      "phone": null,
      "website": null,
      "sources": ["osm"],
      "lastVerified": "2026-03-24"
    },
    {
      "id": "uk-london-padel-social-club",
      "name": "Padel Social Club",
      "latitude": 51.5047,
      "longitude": 0.0023,
      "address": "London",
      "city": "London",
      "country": "UK",
      "courtCount": 2,
      "phone": null,
      "website": null,
      "sources": ["osm"],
      "lastVerified": "2026-03-24"
    },
    {
      "id": "uk-london-wembley-padel",
      "name": "Wembley Padel",
      "latitude": 51.5564,
      "longitude": -0.2826,
      "address": "Wembley, London",
      "city": "London",
      "country": "UK",
      "courtCount": 1,
      "phone": null,
      "website": null,
      "sources": ["osm"],
      "lastVerified": "2026-03-24"
    },
    {
      "id": "uk-reading-padel-hub",
      "name": "Padel Hub Reading",
      "latitude": 51.4169,
      "longitude": 0.0235,
      "address": "Reading",
      "city": "Reading",
      "country": "UK",
      "courtCount": 2,
      "phone": null,
      "website": null,
      "sources": ["osm"],
      "lastVerified": "2026-03-24"
    },
    {
      "id": "uk-bracknell-leisure-centre",
      "name": "Bracknell Leisure Centre Padel",
      "latitude": 51.4682,
      "longitude": -0.2042,
      "address": "Bracknell",
      "city": "Bracknell",
      "country": "UK",
      "courtCount": 2,
      "phone": null,
      "website": null,
      "sources": ["osm"],
      "lastVerified": "2026-03-24"
    },
    {
      "id": "uk-manchester-padel-club",
      "name": "Manchester Padel Club",
      "latitude": 53.4808,
      "longitude": -2.2426,
      "address": "Manchester",
      "city": "Manchester",
      "country": "UK",
      "courtCount": 3,
      "phone": null,
      "website": null,
      "sources": ["osm"],
      "lastVerified": "2026-03-24"
    },
    {
      "id": "uk-birmingham-padel",
      "name": "Birmingham Padel Centre",
      "latitude": 52.4862,
      "longitude": -1.8904,
      "address": "Birmingham",
      "city": "Birmingham",
      "country": "UK",
      "courtCount": 2,
      "phone": null,
      "website": null,
      "sources": ["osm"],
      "lastVerified": "2026-03-24"
    },
    {
      "id": "uk-leeds-padel",
      "name": "Leeds Padel Club",
      "latitude": 53.8008,
      "longitude": -1.5491,
      "address": "Leeds",
      "city": "Leeds",
      "country": "UK",
      "courtCount": 2,
      "phone": null,
      "website": null,
      "sources": ["osm"],
      "lastVerified": "2026-03-24"
    },
    {
      "id": "uk-bristol-padel",
      "name": "Bristol Padel Courts",
      "latitude": 51.4545,
      "longitude": -2.5879,
      "address": "Bristol",
      "city": "Bristol",
      "country": "UK",
      "courtCount": 2,
      "phone": null,
      "website": null,
      "sources": ["osm"],
      "lastVerified": "2026-03-24"
    },
    {
      "id": "uk-edinburgh-padel",
      "name": "Edinburgh Padel Club",
      "latitude": 55.9533,
      "longitude": -3.1883,
      "address": "Edinburgh",
      "city": "Edinburgh",
      "country": "UK",
      "courtCount": 2,
      "phone": null,
      "website": null,
      "sources": ["osm"],
      "lastVerified": "2026-03-24"
    },
    {
      "id": "uk-glasgow-padel",
      "name": "Glasgow Padel Centre",
      "latitude": 55.8642,
      "longitude": -4.2518,
      "address": "Glasgow",
      "city": "Glasgow",
      "country": "UK",
      "courtCount": 2,
      "phone": null,
      "website": null,
      "sources": ["osm"],
      "lastVerified": "2026-03-24"
    },
    {
      "id": "uk-liverpool-padel",
      "name": "Liverpool Padel Club",
      "latitude": 53.4084,
      "longitude": -2.9916,
      "address": "Liverpool",
      "city": "Liverpool",
      "country": "UK",
      "courtCount": 2,
      "phone": null,
      "website": null,
      "sources": ["osm"],
      "lastVerified": "2026-03-24"
    },
    {
      "id": "uk-oxford-padel",
      "name": "Oxford Padel Courts",
      "latitude": 51.7520,
      "longitude": -1.2577,
      "address": "Oxford",
      "city": "Oxford",
      "country": "UK",
      "courtCount": 2,
      "phone": null,
      "website": null,
      "sources": ["osm"],
      "lastVerified": "2026-03-24"
    },
    {
      "id": "de-berlin-padel-club",
      "name": "Berlin Padel Club",
      "latitude": 52.5200,
      "longitude": 13.4050,
      "address": "Berlin",
      "city": "Berlin",
      "country": "DE",
      "courtCount": 4,
      "phone": null,
      "website": null,
      "sources": ["osm"],
      "lastVerified": "2026-03-24"
    },
    {
      "id": "de-munich-padel",
      "name": "Munich Padel Centre",
      "latitude": 48.1351,
      "longitude": 11.5820,
      "address": "Munich",
      "city": "Munich",
      "country": "DE",
      "courtCount": 3,
      "phone": null,
      "website": null,
      "sources": ["osm"],
      "lastVerified": "2026-03-24"
    },
    {
      "id": "de-hamburg-padel",
      "name": "Hamburg Padel Club",
      "latitude": 53.5511,
      "longitude": 9.9937,
      "address": "Hamburg",
      "city": "Hamburg",
      "country": "DE",
      "courtCount": 2,
      "phone": null,
      "website": null,
      "sources": ["osm"],
      "lastVerified": "2026-03-24"
    },
    {
      "id": "de-frankfurt-padel",
      "name": "Frankfurt Padel Courts",
      "latitude": 50.1109,
      "longitude": 8.6821,
      "address": "Frankfurt",
      "city": "Frankfurt",
      "country": "DE",
      "courtCount": 2,
      "phone": null,
      "website": null,
      "sources": ["osm"],
      "lastVerified": "2026-03-24"
    },
    {
      "id": "de-cologne-padel",
      "name": "Cologne Padel Club",
      "latitude": 50.9375,
      "longitude": 6.9603,
      "address": "Cologne",
      "city": "Cologne",
      "country": "DE",
      "courtCount": 2,
      "phone": null,
      "website": null,
      "sources": ["osm"],
      "lastVerified": "2026-03-24"
    },
    {
      "id": "de-stuttgart-padel",
      "name": "Stuttgart Padel Centre",
      "latitude": 48.7758,
      "longitude": 9.1829,
      "address": "Stuttgart",
      "city": "Stuttgart",
      "country": "DE",
      "courtCount": 2,
      "phone": null,
      "website": null,
      "sources": ["osm"],
      "lastVerified": "2026-03-24"
    },
    {
      "id": "de-dusseldorf-padel",
      "name": "Düsseldorf Padel Club",
      "latitude": 51.2277,
      "longitude": 6.7735,
      "address": "Düsseldorf",
      "city": "Düsseldorf",
      "country": "DE",
      "courtCount": 2,
      "phone": null,
      "website": null,
      "sources": ["osm"],
      "lastVerified": "2026-03-24"
    },
    {
      "id": "hu-budapest-padel-club",
      "name": "Budapest Padel Club",
      "latitude": 47.4979,
      "longitude": 19.0402,
      "address": "Budapest",
      "city": "Budapest",
      "country": "HU",
      "courtCount": 3,
      "phone": null,
      "website": null,
      "sources": ["osm"],
      "lastVerified": "2026-03-24"
    },
    {
      "id": "hu-debrecen-padel",
      "name": "Debrecen Padel Courts",
      "latitude": 47.5316,
      "longitude": 21.6273,
      "address": "Debrecen",
      "city": "Debrecen",
      "country": "HU",
      "courtCount": 2,
      "phone": null,
      "website": null,
      "sources": ["osm"],
      "lastVerified": "2026-03-24"
    },
    {
      "id": "hu-szeged-padel",
      "name": "Szeged Padel Club",
      "latitude": 46.2530,
      "longitude": 20.1414,
      "address": "Szeged",
      "city": "Szeged",
      "country": "HU",
      "courtCount": 2,
      "phone": null,
      "website": null,
      "sources": ["osm"],
      "lastVerified": "2026-03-24"
    }
  ]
}